track_id,genre,location,latitude,longitude
TRASQIB128F426693D,Pop,The Bronx  New York,40.8527855,-73.8390537935
TRANRIK128F148C860,Rap,St. Joseph  MO,39.7686055,-94.8466321
TRAZOSB128F9302A07,Rock|Pop,Los Angeles  CA,34.0543942,-118.2439408
TRAZDPO128E078ECE6,Rock,Boston  MA,42.3604823,-71.0595677
TRBAFBU128F427EFCE,Rock,London  England,51.5073219,-0.1276473
TRBDAVU128F423814A,Rock,Sayreville  NJ,40.4592726,-74.3609821
TRATCDG128F932B4D2,Rock,Seattle  Washington,47.6038321,-122.3300623
TRATOHC128EF3460DA,Rock,Borlänge,60.4856426,15.4234561
TRBFEIX128F426A5F8,Rock,Newcastle,54.9770924,-1.6142058
TRAPGOC128F932F01A,Reggae,West London  England,51.5110498,-0.1437339
TRBFJGB128F42612B1,RnB|Pop,Houston  TX,29.675779,-95.4021585102
TRAEOOH128F934ACD4,Metal|Rock,Antarctica,-82.1081819,34.378236
TRAYUCR128E078EE0F,Rock,London  England,51.5073219,-0.1276473
TRASIKP128F423EED7,Electronic,London  England,51.5073219,-0.1276473
TRAKORW128F1484DF0,Pop|RnB,Los Angeles   New York,34.0143928,-117.8984509
TRAMLZC128F92F3EB9,Rock,New York NY,40.7305991,-73.9865811
TRASIWA12903CFFC4D,Reggae,St. Mary's  Jamaica,18.0247003,-76.82161165
TRAILUH128E0784D6D,RnB|Rock,St. Louis  MO,38.6272733,-90.1978888
TRASXHB128F933D3BD,Rock|Reggae,Boston  MA,42.3604823,-71.0595677
TRAESJK128E0792227,Rap,St. Joseph  MO,39.7686055,-94.8466321
TRAJOIH128F14B08F7,Rock,ITALY,42.6384261,12.674297
TRAAHEG128E07861C3,Rap,Newark  NJ,40.735657,-74.1723666
TRAEGGV128F92F29B2,Rock,GERMANY,51.0834196,10.4234469
TRBBKLD128F424ABF5,Metal,Louisiana,30.8703881,-92.0071259
TRAGBHV128F4295074,Rock|Punk,Miami  Florida,25.7742658,-80.1936588
TRBBJFO12903D074EE,Rap,Los Angeles  CA,34.0543942,-118.2439408
TRBIHAU128F425C317,Rock,Amherst  MA,42.3803676,-72.5231429
TRAJXNB128F4261F43,Rock,Carle Place  New York,40.7526008,-73.6104057
TRAINYU128F4246BD1,Rock|Metal,Oxford  England,51.752225,-1.2583027
TRAATNJ128F42631BA,Metal|Rock,Bakersfield  CA,35.3738712,-119.0194638
TRAEUIW12903D018F0,Rock,Galveston  TX,29.299328,-94.7945881
TRBCYOI128F1455566,Rap,New York  NY,40.7305991,-73.9865811
TRARDJY128F14750EA,Rock,Los Angeles  CA,34.0543942,-118.2439408
TRANVZT128F42AE134,Country,Austin  TX,30.2711286,-97.7436994
TRAWOHD128F148D176,Rock|Pop,Chicago  IL,41.8755546,-87.6244211
TRAVELY128F42606F8,Rap,Queens  NY,40.6524927,-73.7914213158
TRBCGRI128F93355E9,Rock,Glasgow  Scotland,55.856656,-4.2435816
TRBGWEG12903CFF7EE,Pop,Virginia,37.1232245,-78.492772
TRAVCNA128F930975C,Metal|Rock,Sweden,59.6749712,14.5208584
TRAUOPA128F93537F2,Folk|Rock,Syracuse  NY,43.0481221,-76.1474243
TRAPASL128F422BC00,Rock,Providence  RI,51.4325529,-2.6640438
TRAGJQL128E078E840,Country,Timmins  Ontario  Canada,48.4759183,-81.3351617
TRATGTP128F427021D,Rock,Brooklyn  NY,40.6501038,-73.9495822
TRAGDPS128F145F8EE,Rock,Los Angeles  CA,34.0543942,-118.2439408
TRAAMPA128F92E7D0D,Punk,Los Angeles  CA,34.0543942,-118.2439408
TRAFMME128F932B4D5,Rock,Seattle  Washington,47.6038321,-122.3300623
TRAHFHR12903CCCAF8,Rock,New York NY,40.7305991,-73.9865811
TRBHCXR128F92E7D0E,Punk,Los Angeles  CA,34.0543942,-118.2439408
TRAWIJG128F42B502C,Country,Timmins  Ontario  Canada,48.4759183,-81.3351617
TRAXWDS12903CEE35E,Rock,Sydney  Australia,-33.8548156,151.2164539
TRAPVYD12903CE0269,Rock|Metal,NORWAY,64.574131,11.5270102892
TRAHMIV128F14693DC,Rock,United Kingdom,54.7023545,-3.2765752
TRBDIOP128EF35F99C,Rock,Los Angeles  CA,34.0543942,-118.2439408
TRAEVRU128F4263351,RnB|Rock,Santa Monica  CA,34.0195598,-118.4869738
TRAJPPX128F4259FD4,Rock,London  England,51.5073219,-0.1276473
TRBHHUC128F4294C6F,Rock|Folk,CANADA - Ontario,50.0000002,-86.0
TRAKGDZ12903CE4867,Rock|Metal,LONG BEACH  California,33.7774658,-118.188487
TRBGCLK128F4237A50,Pop,Chiswick  London  England,51.4923137,-0.2638179
TRACBWX128F92FD725,Electronic,Edmonton  Alberta  Canada,53.5343609,-113.5065084
TRAZVFJ128F9310CE2,Rock,Oxford  UK,51.752225,-1.2583027
TRACMHD128F931FB14,Metal|Rock,Helsinki  Finland,60.1666277,24.9435079
TRAFWRG128F4295089,Rock|Punk,Miami  Florida,25.7742658,-80.1936588
TRALMTD128E07862AC,Rap,Newark  NJ,40.735657,-74.1723666
TRBDTNY128F9327A10,Rock,England,52.7954791,-0.540240236617
TRAHCRI128F4255C6E,Country,Paw Paw  WV,39.5321154,-78.4567384
TRAUODU128F9307467,Rock,Charlottesville  VA,38.029306,-78.476678
TRABRMJ128E0780E42,Pop|Rock,Poway  CA,32.9628234,-117.0358645
TRAPRQZ128F427E188,Rock,Calcutta  India,22.5677459,88.3476023
TRBHKKJ128F427A3B1,Rap|Rock,Croix-des-Bouquets   Haiti,18.5775444,-72.2296218
TRBDDKF128F426BF7B,Rock|Folk,PHILADELPHIA  Pennsylvania,39.9523993,-75.1635898
TRAPESV128F92FE5E9,Country,Shelby  North Carolina,35.2923513,-81.5356462
TRBAHBP128F42985D6,Rock|Punk,New Jersey,40.0757384,-74.4041621
TRAJFRJ128F9328FF1,Blues,Memphis  Tennessee,35.1490215,-90.0516284
TRAOJEW128F4294CBD,Rap|Rock,Mogadishu  Somalia,2.0427779,45.3385636
TRAATIU128F4291A84,Metal,Atlanta  GA,33.7490987,-84.3901848
TRBFUMI128F42B5731,Rock,New York  NY,40.7305991,-73.9865811
TRBAHID128F4278EAF,Pop,Barranquilla  Colombia,11.04667645,-74.8490503668
TRAQGNV128C7196894,Rock,Poway  CA,32.9628234,-117.0358645
TRBAYER128F933D3B7,Rock|Reggae,Boston  MA,42.3604823,-71.0595677
TRAGWTT128F148CF2C,Rock,Gainesville  FL,29.67360855,-82.3234140624
TRBCANP128F92FA6B9,Pop|Rock,New York  NY,40.7305991,-73.9865811
TRAMIUD128E07825DB,Rock,Richmond VA,-32.8660751,151.499496964
TRAZWDT128F4241B14,Country|Rock,Quantico  VA,38.5228755,-77.2901862045
TRAZVZJ128F92EF28A,Punk|Rock,San Francisco  CA,37.7792808,-122.4192362
TRAQKPR128F427DDF8,Rock|Pop,Centre,47.5490251,1.7324062
TRAGYDZ12903D0957F,Rock,Seattle  WA,47.6038321,-122.3300623
TRADXCF128EF357134,Rock,Dundee  Scotland,56.4593653,-2.9735212
TRANCSE128F93044F1,Latin,Barranquilla  Colombia,11.04667645,-74.8490503668
TRAEFDK128F1473B92,RnB,United States,39.7837304,-100.4458824
TRAOYHS128F427EF8B,Rock,Sacramento  CA,38.5815719,-121.4943995
TRAOEAQ12903CC26BD,Rock,Long Island  NY,40.8517821,-73.099185269
TRANIJQ128F4298A10,Rock,New York  NY,40.7305991,-73.9865811
TRBBILZ12903CB422C,Rock|Punk,San Francisco  CA,37.7792808,-122.4192362
TRBHBGB128F931E4CF,Rock,Philadelphia  Pennsylvania,39.9523993,-75.1635898
TRACSIE128F427F98E,Pop|Latin,The Bronx  New York,40.8527855,-73.8390537935
TRAEWLF128F42B1F89,Pop|Electronic,Minneapolis  MN,44.9772995,-93.2654691
TRAWDWZ128F9340E55,RnB,Fairfax  California,37.9871455,-122.5888685
TRALJBT128F4266FD8,RnB|Pop,The Bronx  New York,40.8527855,-73.8390537935
TRBAXDP12903CD1922,Rock,Ukiah  CA,39.1501662,-123.207786
TRAEVRI128F93608F3,Pop|Rock,Chiswick  London  England,51.4923137,-0.2638179
TRACRON12903CB59E6,Rock|Punk,Columbus  OH,39.9622601,-83.0007064
TRBFJPO128F4295BE3,Latin,Barranquilla  Colombia,11.04667645,-74.8490503668
TRAJZCH128F933D2B7,Reggae,Boston  MA,42.3604823,-71.0595677
TRAVUAJ128E078EDA2,Rock,Boston  MA,42.3604823,-71.0595677
TRBBMPH128F1469775,Rock,United Kingdom,54.7023545,-3.2765752
TRBGIDU128F4241A2E,Rock|Metal,Seattle  WA,47.6038321,-122.3300623
TRAQDZZ128F42AF66A,Rap,Memphis  TN,35.1490215,-90.0516284
TRAZCSY128F42683F2,Rock,California - LA,36.7014631,-118.7559973
TRANCCN128E0794B18,Rock,Los Angeles  CA,34.0543942,-118.2439408
TRAOWBP128F4257C64,Rock,Galveston  TX,29.299328,-94.7945881
TRAETTV12903CBBD09,Blues,Seattle  USA,47.6038321,-122.3300623
TRAASQC128F93480F0,Punk|Rock,Chicago,41.8755546,-87.6244211
TRASYIH12903D08529,Pop|Rock,Los Angeles,34.0543942,-118.2439408
TRBEKGR128F425DA44,Rock,Los Angeles  CA,34.0543942,-118.2439408
TRARMHA128F92E7D32,Punk,Los Angeles  CA,34.0543942,-118.2439408
TRABJWA128F9309C09,Rock,Helsinki  Finland,60.1666277,24.9435079
TRARHCB128F148D1B0,Rock|Punk,New Jersey,40.0757384,-74.4041621
TRANIVG128F1484DED,RnB|Pop,Los Angeles   New York,34.0143928,-117.8984509
TRAQITZ128F4265E0E,Country,Kingsland  AR,33.8584369,-92.2940371
TRBCSDW128F424D686,Pop|Electronic,Maine,45.709097,-68.85902
TRBHJJP128F145EA12,Country,San Antonio  TX,29.4246002,-98.4951404
TRAFJVH128F42BC25E,Rap,Compton CA,33.8948824,-118.2260433
TRBEUKI128F9318306,Blues,Teoc  MS,33.5792862,-90.0553621
TRAKQXJ128F147A028,Rock,Ukiah  CA,39.1501662,-123.207786
TRACUCT128F422BC2F,Rock,Denver  CO,39.7348381,-104.965327
TRAGALM128F4236C86,Rap,Japan,36.5748441,139.2394179
TRARSZV12903CDB2DE,Blues,Hudsonville  MS,34.8612054,-89.375075
TRBACUF128F4247F8C,RnB,Minneapolis  MN,44.9772995,-93.2654691
TRBBVNR128E078E1E4,Rap,Los Angeles  CA,34.0543942,-118.2439408
TRAMKKJ128F1463612,Reggae,NY - Long Island,40.8517821,-73.099185269
TRAVKJJ128F424DA32,Pop|Jazz,Chicago  IL,41.8755546,-87.6244211
TRAMARM128E0796A50,Rock,Stillwater  OK,36.1156306,-97.0585716
TRAJIUK128F42668E6,Rock,Wisconsin,44.4308975,-89.6884636
TRAFZHK128F145E86B,Rock,Wilkes Barre  PA,41.2464824,-75.8817315
TRBDYIC128F92F1D17,Rap,Detroit MI,42.3486635,-83.0567374
TRAVRPL128F145E874,Rock,Wilkes Barre  PA,41.2464824,-75.8817315
TRAZEYQ12903C9D099,Blues,Beaumont  Texas,30.0860459,-94.101846
TRAYABW128F4235888,Punk,Berkeley  CA,37.8708393,-122.2728638
TRAAAEF128F4273421,Rock,London  England,51.5073219,-0.1276473
TRAWEIX128F14B0F05,Rap,Mt. Vernon  NY,40.9125992,-73.8370785
TRAVPHL128F424EAE1,Rock,Escatawpa  MS,30.49112175,-88.5513368812
TRAWHZK12903CB5A01,Rock|Punk,Columbus  OH,39.9622601,-83.0007064
TRABZRZ128F42628AD,Rock|Blues,London  England,51.5073219,-0.1276473
TRABYEY128F933773A,Punk,Pittsburgh  PA,40.4416941,-79.990086
TRAUXSO128F42B863C,Rock,Newcastle,54.9770924,-1.6142058
TRBFSNP128F14572B5,Rock|Metal,California - LA,36.7014631,-118.7559973
TRANMOT128F92EFF19,Country,Cross Lane  WV,39.180181,-81.7331799
TRBBJAJ128F425DA40,Rock,Los Angeles  CA,34.0543942,-118.2439408
TRAYQKQ128F1491182,Rap,London  England,51.5073219,-0.1276473
TRAEMNZ128F9334662,Rock,Boston  MA,42.3604823,-71.0595677
TRAUCZX128F149D9AE,Country,Vidor  TX,30.1316001,-94.0154541
TRANRFB128F1481F1E,Rock,Batley  England,53.716564,-1.6363855
TRACFZI128E0795424,Rock,California,36.7014631,-118.7559973
TRABOXX128F92F29EB,Pop|Electronic,Minnesota,45.9896587,-94.6113287
TRABVWG128F9359323,Rock,Los Angeles  California,34.0543942,-118.2439408
TRAYGHE12903CD213E,Electronic,Braintree  Essex  England,51.8790108,0.5501584
TRAXPHE128F92F4100,Blues,Middlesbrough  England,54.5760419,-1.2344046
TRABJIX128C7196953,RnB,London,51.5073219,-0.1276473
TRAPTRH128F4271659,Blues,Beaumont  Texas,30.0860459,-94.101846
TRARIZK128F92FF27A,Rock,Garnant  Wales,51.7953874,-3.8911244
TRBEYJR128F4292651,RnB,Severn  MD,39.1278864,-76.6869127
TRAQEOP12903CA65E2,Pop|Latin,Barranquilla  Colombia,11.04667645,-74.8490503668
TRBALIJ128F14884B5,Rock,Muskegon  MI,43.2341813,-86.248392
TRAFRKU128F933CE16,Rock,Atlanta  GA,33.7490987,-84.3901848
TRARJPL128F931C7D2,Rock,Salt Lake City  UT,40.7670126,-111.8904307
TRAQQHJ128F9345DC3,Rock|Punk,Chicago,41.8755546,-87.6244211
TRACHKX128F934B07A,Electronic,Stockholm,59.3251172,18.0710935
TRBHKKK128F427E9FF,Rock,Escatawpa  MS,30.49112175,-88.5513368812
TRAKOEB128F1478783,Rock,Chicago,41.8755546,-87.6244211
TRAWRHQ128F1495E6B,Jazz,Niteroi  Brazil,-22.883237,-43.1154551
TRAQEUQ128F425282E,Metal,POLAND,52.0977181,19.0258159
TRALNOD128F4264AEB,RnB|Rock,Santa Monica  CA,34.0195598,-118.4869738
TRAMFFW128F4263AD7,Pop|Rock,London  England,51.5073219,-0.1276473
TRAHORF12903CDA9FB,Pop,Corte Madera CA,37.9254806,-122.5274754
TRARKGW128F92EB8F9,Rock,NL,26.1630556,94.5884911
TRAPAZE128F4233355,Punk,Pittsburgh  PA,40.4416941,-79.990086
TRANRWM128F42873F9,Rock,Tempe  AZ,33.4144139,-111.9094473
TRADGXI128F92EF28F,Punk|Rock,San Francisco  CA,37.7792808,-122.4192362
TRAPLMD128F932FF43,Rock|Metal,Los Angeles  CA,34.0543942,-118.2439408
TRAASUZ128F9314950,Metal|Rock,Bakersfield  CA,35.3738712,-119.0194638
TRATJSR128F4266791,RnB|Pop,The Bronx  New York,40.8527855,-73.8390537935
TRARANL128F1478789,Rock,Chicago,41.8755546,-87.6244211
TRBFVZI128F147FCAF,Pop,Chiswick  London  England,51.4923137,-0.2638179
TRAYJHF128F4294CB8,Rap,Mogadishu  Somalia,2.0427779,45.3385636
TRAIPST128F9302AE9,Rap,St. Joseph  MO,39.7686055,-94.8466321
TRAZXDC128F429874E,Reggae|Pop,Kingston  Jamaica,17.9712148,-76.7928127
TRAMBBV128F9337714,Punk,Pittsburgh  PA,40.4416941,-79.990086
TRAAPPQ128F14961F5,Rock,Athens  GA,33.9595974,-83.3766779
TRAWLGG128F42884CA,RnB,Atlanta  GA,33.7490987,-84.3901848
TRAHCHN128F4276D58,World|Rock,Arles  France,43.6776223,4.6309653
TRBFBUO128F42A3DED,Rock,Eskilstuna  Sweden,59.3717379,16.5051474
TRAYKOC128F930D2B8,Rock,Boston  MA,42.3604823,-71.0595677
TRAUVUF128F148D1AA,Punk,New Jersey,40.0757384,-74.4041621
TRAWTGS128F14569A8,Rock|Pop,London  England,51.5073219,-0.1276473
TRBFBOG128F9356C6E,Rap,allentown Pennsylvania USA,40.6022059,-75.4712793
TRAAXUY128F426BA55,Rock,Los Angeles  CA,34.0543942,-118.2439408
TRABHVL128F92EFB0E,Metal,Bridgend  South Wales  UK,51.4968369,-3.5658028
TRAWDLK128EF342E1E,Rap,Newark  NJ,40.735657,-74.1723666
TRAEXHW128F92E2602,Rock|Rap,Geneva  NY,42.8689552,-76.9777435
TRADAYS12903CDBE0F,Blues|Rock,Greenwood  MS,39.60903665,-86.1070449882
TRBFRZX128F9341EAE,Rap,East Flatbush  Brooklyn  NY,40.6537148,-73.930415
TRAWSXV128F4273E35,Rap,Queensbridge  NY,40.75514545,-73.9449784413
TRACCVZ128F4291A8A,Metal,Atlanta  GA,33.7490987,-84.3901848
TRBFWSP128F92F29B4,Rock,GERMANY,51.0834196,10.4234469
TRAQOXO128F42636BD,Rock,London  England,51.5073219,-0.1276473
TRADODV128F4283EB6,Rap,Queensbridge  NY,40.75514545,-73.9449784413
TRAWGLP128F92DE5AD,Pop,LOS ANGELES  California,34.0543942,-118.2439408
TRARIRG128F147FC96,Pop,Chiswick  London  England,51.4923137,-0.2638179
TRAGHBP128E0793AF7,Rock,London  England,51.5073219,-0.1276473
TRAXWQU128F42716E2,Rock,Seymour  IN,38.9592201,-85.8902546
TRANCOS128F4267DFB,Rock,Borlänge,60.4856426,15.4234561
TRBADGN128F42AA534,Latin,Cádiz,36.5298292,-6.2925678
TRAXJHG128F427EA02,Rock,Escatawpa  MS,30.49112175,-88.5513368812
TRBCCAJ128F148CBBB,Rap,allentown Pennsylvania USA,40.6022059,-75.4712793
TRATZQS128F1467D4B,Rock,Georgia,32.3293809,-83.1137365
TRAAIAE128F42AC53D,Country,Medicine Lodge  KS,37.2811339,-98.5803609
TRABXVE128F4284AFC,Folk,Forest Hills  Queens  New York City  NY  USA,40.7232458,-73.8466131103
TRBGMJF128F425E8EA,Rock,Los Angeles  CA,34.0543942,-118.2439408
TRAWVNL128F9327983,Rock,England,52.7954791,-0.540240236617
TRAPJPD128F14572B3,Rock,California - LA,36.7014631,-118.7559973
TRAGJPA128F92F9665,Rock,Dublin  Ireland,53.3497645,-6.2602731
TRANZIL128F42A2670,Country,Locust Ridge  TN,35.6561818,-86.2952707
TRBAHEH128F9327D39,RnB|Reggae,Croix-des-Bouquets   Haiti,18.5775444,-72.2296218
TRAKYWY128F9310CF4,Rock,Oxford  UK,51.752225,-1.2583027
TRBAWKB128F931BAEE,Pop|Electronic,Minnesota,45.9896587,-94.6113287
TRBCNWM128F92D50EC,Rap,Queens  NY,40.6524927,-73.7914213158
TRAVLWL128F424EF6A,Rock,Stillwater  OK,36.1156306,-97.0585716
TRAEHXW128F146F3C5,Country,Houston  TX,29.675779,-95.4021585102
TRAQLOD128F145EC9D,Latin|Pop,Madrid  Spain,40.4167047,-3.7035824
TRADKDX128F9320676,Rock,Seattle  WA,47.6038321,-122.3300623
TRACRTS128F9300F7E,Punk|Rock,Washington  D.C.,38.8949549,-77.0366455
TRALRTY128F428BE43,RnB,Atlanta  GA,33.7490987,-84.3901848
TRAXDAH128F422BBFC,Rock,Providence  RI,51.4325529,-2.6640438
TRAGNBQ128F149CB93,Rock,Wilmette  IL,42.0770909,-87.7238935
TRASDGG128F933EDE2,Punk|Rock,Pittsburgh  PA,40.4416941,-79.990086
TRBAIKM12903CBCF21,Blues|Rock,Regina  Saskatchewan  Canada,50.4480951,-104.615818
TRBETHV128F429722F,Pop|Latin,Cádiz,36.5298292,-6.2925678
TRAKCFG128F149D9B7,Country,Vidor  TX,30.1316001,-94.0154541
TRAZVYP128F1459AD9,Pop,London  England,51.5073219,-0.1276473
TRAKMUO128F4215890,Latin|Pop,Madrid  Spain,40.4167047,-3.7035824
TRAPNII12903CEA4F8,Rock,England,52.7954791,-0.540240236617
TRBCJUF128F93190C2,Pop,LDN,50.10649545,14.4009095531
TRAZLLR128F42A8DCC,RnB,United States,39.7837304,-100.4458824
TRBHEBY128F148CF2B,Rock,Gainesville  FL,29.67360855,-82.3234140624
TRAWKPT128E0795428,Rock,California,36.7014631,-118.7559973
TRAUYZG12903CDA4E9,Rock,Sayreville  NJ,40.4592726,-74.3609821
TRBGZLM128F4221E63,Rock|Punk,Gainesville  FL,29.67360855,-82.3234140624
TRBFIAK128E07823AA,Rock,Wales,52.2928116,-3.7389299
TRAKXMS12903CB36F2,Rock,Charlottesville  VA,38.029306,-78.476678
TRADRNN128F92F7172,Rap|Rock,Chicago  IL,41.8755546,-87.6244211
TRATAIB128F92E81CB,Rock,Santa Barbara,34.4098107,-119.6970238
TRBFNBC12903CA9800,Rock,Atlanta  GA,33.7490987,-84.3901848
TRAFUWI128F934C730,Metal,Antarctica,-82.1081819,34.378236
TRAOSFC128F42618F6,Jazz,New Orleans  LA,29.9499323,-90.0701155
TRANLJA128F42A5379,Country,Locust Ridge  TN,35.6561818,-86.2952707
TRAMRFE128F4267DF3,Rock,Borlänge,60.4856426,15.4234561
TRANWOF12903CB3E19,Electronic,Los Angeles  CA,34.0543942,-118.2439408
TRBGHND128E079438C,Rock,New York  NY,40.7305991,-73.9865811
TRAQEOG128F9353981,Folk,Syracuse  NY,43.0481221,-76.1474243
TRAIBXJ128F4260700,Rap,Queens  NY,40.6524927,-73.7914213158
TRAMFRD128E07833DA,Country,Locust Ridge  TN,35.6561818,-86.2952707
TRARIIY128F147187D,Rock,New York  NY,40.7305991,-73.9865811
TRAGPAF128EF34542A,Rock|Punk,Long Island  NY,40.8517821,-73.099185269
TRBBVSO128F9341C12,Country,Medicine Lodge  KS,37.2811339,-98.5803609
TRALDUE128F9312AF2,Blues|Rock,Dundee  Scotland,56.4593653,-2.9735212
TRAPJFL128F42AA7B4,Rock,Seattle  WA,47.6038321,-122.3300623
TRASAIH128F931F567,Rock,Orange  CA,33.7500378,-117.870493
TRAQVOG128F9340E58,RnB,Fairfax  California,37.9871455,-122.5888685
TRAJNWY128E078907F,Electronic,Melbourne  Australia,-37.8142175,144.9631608
TRAPQNA128F93000EB,Country,Gore  VA,39.2639911,-78.3319493
TRAKXIR128F92CF85A,Country,Cleveland  TN,35.1595182,-84.8766114
TRASLHI128EF343C84,Rock,London  England,51.5073219,-0.1276473
TRBCUPT128F1462B73,Rock,Orange  CA,33.7500378,-117.870493
TRBBGQN128F9310CBE,Rock,Oxford  UK,51.752225,-1.2583027
TRAFLZY128F148959F,Rock,New Jersey,40.0757384,-74.4041621
TRAHXGG128F9350452,Rock,Bakersfield  CA,35.3738712,-119.0194638
TRAROQC128F4273979,Latin,Barranquilla  Colombia,11.04667645,-74.8490503668
TRATTNI128E0799697,Country,Nashville  TN,36.1622296,-86.774353
TRANBMY128F426416A,Metal|Rock,Queens  NY,40.6524927,-73.7914213158
TRAVMXD12903CBBD0B,Rock|Blues,Seattle  USA,47.6038321,-122.3300623
TRBHIJC128F92E55E2,Blues,Greenwood  MS,39.60903665,-86.1070449882
TRBHAAK128F92E27BF,Rap,Croix-des-Bouquets   Haiti,18.5775444,-72.2296218
TRATDDF128F4294E6A,Rock,Eskilstuna  Sweden,59.3717379,16.5051474
TRBAAOT128F4261A18,Jazz|Rock,Sayreville  NJ,40.4592726,-74.3609821
TRAZACV128F426983D,Pop|Rock,Glasgow  Scotland,55.856656,-4.2435816
TRAFBVU128F426B3F6,Rock|Metal,Oslo  Norway,59.9132694,10.7391112
TRBCPXR128F42AC544,Country,Medicine Lodge  KS,37.2811339,-98.5803609
TRASCWR12903CCC575,Blues|Rock,Seattle  USA,47.6038321,-122.3300623
TRBBEGG128F9314BAA,Country,Medicine Lodge  KS,37.2811339,-98.5803609
TRBGBGO128F4264203,Rock,Wisconsin,44.4308975,-89.6884636
TRBHQHN128F148A1B3,Rock,Amherst  MA,42.3803676,-72.5231429
TRBBVBM128F4276D82,Rock,Glasgow  Scotland,55.856656,-4.2435816
TRBIAVU128EF3493BA,Country,Paw Paw  WV,39.5321154,-78.4567384
TRATDLH128F93384B0,Pop,LDN,50.10649545,14.4009095531
TRABBXU128F92FEF48,Pop|Rock,Hamtramck  MI,42.3928151,-83.0496437
TRAUNEL128F1467D5C,Rock,Georgia,32.3293809,-83.1137365
TRAIWZZ128F9306AFF,Rock|Metal,Bakersfield  CA,35.3738712,-119.0194638
TRARVZG128F1497359,Rap,BAKERSFIELD  California,35.3738712,-119.0194638
TRBBYDT128F14805B4,Rock,Chiswick  London  England,51.4923137,-0.2638179
TRBDLLL128F9331D6E,Rap,St. Louis  MO,38.6272733,-90.1978888
TRAZZQC128F427A0F5,Rock,Boston  MA,42.3604823,-71.0595677
TRBDVVT128F4279D11,Rap,Los Angeles CA,34.0543942,-118.2439408
TRAGVAO128F4289B5D,Rap,Queensbridge  NY,40.75514545,-73.9449784413
TRBFIUJ12903CFEB7C,Rock|Metal,City of Angels,34.0543942,-118.2439408
TRBGRIP128F147FCA6,Rock|Pop,Chiswick  London  England,51.4923137,-0.2638179
TRALDDK128F9300AC5,Rock,Orange  CA,33.7500378,-117.870493
TRBFYJE128F14A8ABF,Reggae,Birmingham  England,52.4776875,-1.8948515
TRAKKOH128F42AF40E,Pop|Latin,The Bronx  New York,40.8527855,-73.8390537935
TRAPPUN128F429400B,Rock,Seattle  WA,47.6038321,-122.3300623
TRAPCHT128F4239830,Metal,Orlando  FL,28.5479786,-81.4127840856
TRACOHQ128F424C5EF,Metal,Cleveland  OH,41.5051613,-81.6934445
TRBIFOK128EF362D20,Rap,Los Angeles  CA,34.0543942,-118.2439408
TRAIWNA128F145E2CD,Rock,Batley  England,53.716564,-1.6363855
TRADXCO128F426B26D,Rock,NY - New York City,40.7305991,-73.9865811
TRABLLK128F428FFAF,Rock,Liverpool  England,53.4054719,-2.9805392
TRAZWGV128F425DA7C,Country,Vidor  TX,30.1316001,-94.0154541
TRBFNMG128F4278109,Rock,Boston  MA,42.3604823,-71.0595677
TRAXJVO128F42AC534,Country,Medicine Lodge  KS,37.2811339,-98.5803609
TRASYVP12903D09590,Rock,Seattle  WA,47.6038321,-122.3300623
TRAFKRE128F932002B,Rock,Baltimore  MD,39.2908608,-76.6108072
TRBIBAQ128F93279F5,Rock,England,52.7954791,-0.540240236617
TRAPMRV128F92F5F4C,Country,Austin  TX,30.2711286,-97.7436994
TRAGQBY128F42635B7,Rock,London  England,51.5073219,-0.1276473
TRAGFVT128F92ECB5D,Rock,Manchester  England,53.4791301,-2.2441008
TRAONPF128F42480A7,Country,Lynchburg  VA,37.40088,-79.1844922946
TRAKTWZ128EF35E206,Electronic|Rock,Los Angeles   New York,34.0143928,-117.8984509
TRAURRP128F4261B94,Country,Austin  TX,30.2711286,-97.7436994
TRALROP128F92CA9CC,Rock,Seattle  WA,47.6038321,-122.3300623
TRAJFDU128F426A5F4,Rock,Newcastle,54.9770924,-1.6142058
TRAMPCW128F92CC022,Rock|Folk,Forest Hills  Queens  New York City  NY  USA,40.7232458,-73.8466131103
TRAPGKY128F42972A9,Rock,St. Catharines  ON  Canada,43.1654193,-79.2391708
TRASSZI128F146EC5F,Rock,Dundee  Scotland,56.4593653,-2.9735212
TRBFPRL128F14569B9,Rock,London  England,51.5073219,-0.1276473
TRASDYA128F425E84F,RnB,Fairfax  California,37.9871455,-122.5888685
TRALQGZ128F146F500,Pop|Rock,Scotland,56.7861112,-4.1140517
TRAUSHD128E0795347,Rock,Sayreville  NJ,40.4592726,-74.3609821
TRAPGOZ128F933A945,Blues,Fargo  ND,46.8772292,-96.7898209
TRBBTUD128F42A10A3,Rock|Metal,POLAND,52.0977181,19.0258159
TRBATEY128F4285370,Country,McLellan  FL,30.9865707,-86.8863502
TRAZYVR128F4280A24,Rap|Rock,Long Island  NY,40.8517821,-73.099185269
TRAMTYX128F42985D0,Punk,New Jersey,40.0757384,-74.4041621
TRADCIM128F427A3A1,Rap,Croix-des-Bouquets   Haiti,18.5775444,-72.2296218
TRAAQCK128F92E8C33,Pop,LDN,50.10649545,14.4009095531
TRAGHJX128F426F76F,Rock|Folk,Duluth  MN,46.7729322,-92.1251217
TRANEMQ128F42A10A8,Rock|Metal,POLAND,52.0977181,19.0258159
TRAEOBA12903CAFAB0,Rock,London  England,51.5073219,-0.1276473
TRAEVHU128F92D9EA0,Rock,Houston  Texas,29.7589382,-95.3676973
TRADFII128F931FC9F,Metal,Los Angeles  CA,34.0543942,-118.2439408
TRANTAD128F92FD042,Rock,Calcutta  India,22.5677459,88.3476023
TRAPQQI128F1460D64,Rock,Los Angeles  California,34.0543942,-118.2439408
TRAUXSK128F427C58D,Punk|Rock,Pittsburgh  PA,40.4416941,-79.990086
TRBFRFR128E0781C86,Rock|Reggae,Gainesville  FL,29.67360855,-82.3234140624
TRADJGI128F148B0F6,Blues,Fargo  ND,46.8772292,-96.7898209
TRADFID128F4267231,Rock,Newcastle,54.9770924,-1.6142058
TRANPWV128F9341281,Metal,POLAND,52.0977181,19.0258159
TRAPHZT128F147A02B,Rock|Punk,Ukiah  CA,39.1501662,-123.207786
TRBDDTT128F4291192,Metal,New Orleans  LA,29.9499323,-90.0701155
TRALNJR128F145AC96,Rap,New York  NY,40.7305991,-73.9865811
TRALPKG12903CDCA8A,Rock,London  England,51.5073219,-0.1276473
TRAFCWJ128F42515AE,Blues,Teoc  MS,33.5792862,-90.0553621
TRBGNNC128F148D427,Rap,allentown Pennsylvania USA,40.6022059,-75.4712793
TRAWAXV128F92E075C,Pop,Minneapolis  MN,44.9772995,-93.2654691
TRAUOUZ128E078F8BB,Rap,Compton  California,33.8948824,-118.2260433
TRBHEVR128F4263CE0,Rock,Wisconsin,44.4308975,-89.6884636
TRAJHHE128F146815C,Blues,Gilmer  TX,32.7287472,-94.9424378
TRBCGKB12903CC0031,Rock,Batley  England,53.716564,-1.6363855
TRACBWP128C7196948,Rock,Escatawpa  MS,30.49112175,-88.5513368812
TRADFXD128F424694C,Rock,Borlänge,60.4856426,15.4234561
TRASAQI128F426EEA3,Rock|Folk,Duluth  MN,46.7729322,-92.1251217
TRAPHAH128F42677A4,Pop,The Bronx  New York,40.8527855,-73.8390537935
TRBGCAK128F425F3CC,Electronic,Braintree  Essex  England,51.8790108,0.5501584
TRAMUUZ128F933CA08,Rap,allentown Pennsylvania USA,40.6022059,-75.4712793
TRBDIMX128F147A307,Latin|Rock,Niteroi  Brazil,-22.883237,-43.1154551
TRAFLMU128F4274A4D,Rap,ABD,30.3668544,48.2284409439
TRACVSS128E07846A7,Rock,Dundee  Scotland,56.4593653,-2.9735212
TRANIUD12903CCE692,Reggae,Montego Bay  Jamaica,18.4724603,-77.9217356
TRAEOMS128F4262357,Punk,Berkeley  CA,37.8708393,-122.2728638
TRARUOP12903CF2384,Metal,Boston  MA,42.3604823,-71.0595677
TRBEIVC128F9320E95,Rock,Dundee  Scotland,56.4593653,-2.9735212
TRAQXJY12903CF3A0E,Reggae,Birmingham  England,52.4776875,-1.8948515
TRAWULX128F4291255,Country,Medicine Lodge  KS,37.2811339,-98.5803609
TRACTWW12903CB7550,Rock,Richmond VA,-32.8660751,151.499496964
TRAUJLJ128E0784E7C,Rap|RnB,Brooklyn  NY,40.6501038,-73.9495822
TRAGKUI128F92F4698,Metal|Rock,Sweden,59.6749712,14.5208584
TRAXRGF128F930A59F,Rap,New York  NY,40.7305991,-73.9865811
TRAIACZ128F428C60A,Rap,Atlanta  GA,33.7490987,-84.3901848
TRAXEHW128F423E590,Rock|Punk,New Jersey,40.0757384,-74.4041621
TRBBQFV128F4252EFF,Pop|Rock,Galveston  TX,29.299328,-94.7945881
TRADDRF128F145869F,Rock,Glasgow  Scotland,55.856656,-4.2435816
TRAIOWX128F14750E5,Rock,Los Angeles  CA,34.0543942,-118.2439408
TRALJVQ128F428C764,Rock,Los Angeles  California,34.0543942,-118.2439408
TRAAVGB12903CFAA99,Country,McLellan  FL,30.9865707,-86.8863502
TRADSQZ128F42707D7,Rock,Newcastle,54.9770924,-1.6142058
TRAMMAF128F93051B0,Electronic|Pop,London  England,51.5073219,-0.1276473
TRAZKAG12903CD1918,Rock,Ukiah  CA,39.1501662,-123.207786
TRAGOVG128F42A963D,Rock,Bakersfield  CA,35.3738712,-119.0194638
TRAWWQM128F148C796,Rock,New York  NY,40.7305991,-73.9865811
TRAHFOU128F42B3F2A,Rap,Long Island  NY,40.8517821,-73.099185269
TRABQZK128F92F54F4,Pop|Latin,Barranquilla  Colombia,11.04667645,-74.8490503668
TRAKDDB128F92D168A,Jazz,Hollywood  CA,34.1028268,-118.3299898
TRBEVTM128F92FE2B2,Electronic,Los Angeles  CA,34.0543942,-118.2439408
TRAZORC128F426C323,Electronic,Melbourne  Australia,-37.8142175,144.9631608
TRAKWTG128F42454E2,Reggae,Gainesville  FL,29.67360855,-82.3234140624
TRACSBL128F42480E8,Electronic,Sydney  Australia,-33.8548156,151.2164539
TRABGMB12903CF50FE,Rap,Germany,51.0834196,10.4234469
TRABFKN12903CAF61B,Rock,Baltimore  MD,39.2908608,-76.6108072
TRACVFF12903CF055A,Rock,Amherst  MA,42.3803676,-72.5231429
TRBFLER128F148C52B,Reggae,Boston  MA,42.3604823,-71.0595677
TRBARHH128E078EDE9,Rock,Boston  MA,42.3604823,-71.0595677
TRANTFR128F931C7DA,Rock,Salt Lake City  UT,40.7670126,-111.8904307
TRBCTRX128F4299237,RnB|Reggae,Croix-des-Bouquets   Haiti,18.5775444,-72.2296218
TRBCUBV128F145F7E9,Rock,Galveston  TX,29.299328,-94.7945881
TRBBMQN128EF35F995,Pop|Rock,Los Angeles  CA,34.0543942,-118.2439408
TRAAIHL128F92E6DDA,RnB,Philadelphia  PA,39.9523993,-75.1635898
TRBIJFB128F92ED124,Rock|Metal,Buffalo  NY,42.8971799,-78.8533217725
TRBICRP128F42882BB,Rap,Atlanta  GA,33.7490987,-84.3901848
TRAKZHN128F426C3D2,Rock,Boston  MA,42.3604823,-71.0595677
TRBHKXX128F4252D02,Rock,Oxford  UK,51.752225,-1.2583027
TRBFUSW128F92D0357,Pop|Rock,Brooklyn  NY,40.6501038,-73.9495822
TRBGGYE128F42B63AB,Blues,Austin  TX,30.2711286,-97.7436994
TRAMXPQ128F148B0C2,Country,Cleveland  TN,35.1595182,-84.8766114
TRAKQFZ128F429D3C9,Rock,San Francisco  CA,37.7792808,-122.4192362
TRAYMKM128F4277046,Rock|Folk,Forest Hills  Queens  New York City  NY  USA,40.7232458,-73.8466131103
TRBDSLA128F4288246,RnB,Severn  MD,39.1278864,-76.6869127
TRBDWLE128F42B3112,Pop|Rock,Brooklyn  NY,40.6501038,-73.9495822
TRBEATE128E078F0D8,Rock,Sayreville  NJ,40.4592726,-74.3609821
TRBFURI128F1455498,Pop,Scotland,56.7861112,-4.1140517
TRBAFWX12903CA9831,Rock,Atlanta  GA,33.7490987,-84.3901848
TRAKHYP128E0792F07,Folk|Country,Old Town  ME,44.9342349,-68.6453091
TRAIATD128F9331CD6,RnB,Atlanta  GA,33.7490987,-84.3901848
TRAMCGL128F92F3D87,Rock,Long Beach  California,33.7774658,-118.188487
TRATMDD12903D11C7A,Country,Gore  VA,39.2639911,-78.3319493
TRAQYOC128F9341CDC,Rap,East Flatbush  Brooklyn  NY,40.6537148,-73.930415
TRAGDPH128F9344020,Punk|Rock,San Francisco  CA,37.7792808,-122.4192362
TRAWOBG128F93256C6,Rock,Boston  MA,42.3604823,-71.0595677
TRASIVA128F933DB52,RnB,Philadelphia  PA,39.9523993,-75.1635898
TRBEBEZ128E0792F08,Folk|Pop,Old Town  ME,44.9342349,-68.6453091
TRAJEZT128E0795DF3,Pop|Electronic,Middlesbrough  England,54.5760419,-1.2344046
TRAJAZP128F4290FF9,Metal,Atlanta  GA,33.7490987,-84.3901848
TRAKOPE128F421CE6A,Country,Gore  VA,39.2639911,-78.3319493
TRBFLOH128F42630E3,RnB,Englewood  NJ,40.8928771,-73.972638
TRALZTM128F92EC5F0,Pop,Charlemagne  Quebec  Canada,45.7263547,-73.4976294
TRASWKJ128E0792FE7,Folk|Country,Old Town  ME,44.9342349,-68.6453091
TRAMMDM128F425EAA9,Rap,Croix-des-Bouquets   Haiti,18.5775444,-72.2296218
TRAUWRW128F9358C69,Rap,Brooklyn  NY,40.6501038,-73.9495822
TRBHMZS128F42658FF,Rap,Memphis  TN,35.1490215,-90.0516284
TRAZJOI12903CDA550,Rock,Sayreville  NJ,40.4592726,-74.3609821
TRAVTEH128E07953EA,Rock,Sayreville  NJ,40.4592726,-74.3609821
TRASXZE128F427F156,Rock,Oxford  England,51.752225,-1.2583027
TRAAGCZ128F93210FD,Pop|Rap,Los Angeles  CA,34.0543942,-118.2439408
TRASZSF128F428B8F3,Country,Sledge  MS,34.432039,-90.2224095302
TRAFCVI128C7196BE6,Reggae,Birmingham  England,52.4776875,-1.8948515
TRBCBLV128F14ADF31,Rock,Fort Wayne  Indiana,41.0799898,-85.1386014
TRAMSAY128F92ED0DD,Rock|Metal,Buffalo  NY,42.8971799,-78.8533217725
TRAFQFM128E078EC97,Rap,St. Joseph  MO,39.7686055,-94.8466321
TRAIUPS128F92F2825,Metal|Rock,Helsinki  Finland,60.1666277,24.9435079
TRAGXUZ128F9311745,Country,Kingsland  AR,33.8584369,-92.2940371
TRAULGT12903D10B94,Blues,Memphis  Tennessee,35.1490215,-90.0516284
TRBBWDJ128F42595D5,Rock,Dublin  Ireland,53.3497645,-6.2602731
TRBBHPQ128F145A7F8,Rock,Seymour  IN,38.9592201,-85.8902546
TRARTJL128F92CB44B,Rock,Sayreville  NJ,40.4592726,-74.3609821
TRAGYJM128EF3466D2,Rock,Amherst  MA,42.3803676,-72.5231429
TRADQJL128F92D9957,Electronic,Sydney  Australia,-33.8548156,151.2164539
TRANKIL128F1476FA2,Rock,London  England,51.5073219,-0.1276473
TRBBMIF12903CA1EB0,Rock,United Kingdom,54.7023545,-3.2765752
TRBGZKO128F92DB016,Rock,London  England,51.5073219,-0.1276473
TRAYIUG12903CC7E3C,World|Metal,Arles  France,43.6776223,4.6309653
TRBEELS128F42B63A8,Rock,Austin  TX,30.2711286,-97.7436994
TRAZJGD128F4289D2A,Rap,Geneva  NY,42.8689552,-76.9777435
TRAOATJ128F147FC9B,Rock|Pop,Chiswick  London  England,51.4923137,-0.2638179
TRAZBBP128E07845D4,Rap,Atlanta  GA,33.7490987,-84.3901848
TRABZCL128E0789AED,Country,Quantico  VA,38.5228755,-77.2901862045
TRAONNA128F4268CCA,Rap,Queensbridge  NY,40.75514545,-73.9449784413
TRAAUEO128E0780CB9,Rock,London  England,51.5073219,-0.1276473
TRBFYKT128F428AFF7,Country,Lynchburg  VA,37.40088,-79.1844922946
TRAMCND128F1466ACF,Rap,New York  NY,40.7305991,-73.9865811
