track_id,artist_location,location_latitude,location_longitude,cluster
TRASQIB128F426693D,The Bronx  New York,40.8527855,-73.8390537935,0
TRANRIK128F148C860,St. Joseph  MO,39.7686055,-94.8466321,6
TRAZOSB128F9302A07,Los Angeles  CA,34.0543942,-118.2439408,3
TRAZDPO128E078ECE6,Boston  MA,42.3604823,-71.0595677,0
TRBAFBU128F427EFCE,London  England,51.5073219,-0.1276473,5
TRBDAVU128F423814A,Sayreville  NJ,40.4592726,-74.3609821,0
TRATCDG128F932B4D2,Seattle  Washington,47.6038321,-122.3300623,13
TRATOHC128EF3460DA,Borlänge,60.4856426,15.4234561,1
TRBFEIX128F426A5F8,Newcastle,54.9770924,-1.6142058,5
TRAPGOC128F932F01A,West London  England,51.5110498,-0.1437339,5
TRBFJGB128F42612B1,Houston  TX,29.675779,-95.4021585102,6
TRAEOOH128F934ACD4,Antarctica,-82.1081819,34.378236,4
TRAYUCR128E078EE0F,London  England,51.5073219,-0.1276473,5
TRASIKP128F423EED7,London  England,51.5073219,-0.1276473,5
TRAKORW128F1484DF0,Los Angeles   New York,34.0143928,-117.8984509,3
TRAMLZC128F92F3EB9,New York NY,40.7305991,-73.9865811,0
TRASIWA12903CFFC4D,St. Mary's  Jamaica,18.0247003,-76.82161165,8
TRAILUH128E0784D6D,St. Louis  MO,38.6272733,-90.1978888,12
TRASXHB128F933D3BD,Boston  MA,42.3604823,-71.0595677,0
TRAESJK128E0792227,St. Joseph  MO,39.7686055,-94.8466321,6
TRAJOIH128F14B08F7,ITALY,42.6384261,12.674297,1
TRAAHEG128E07861C3,Newark  NJ,40.735657,-74.1723666,0
TRAEGGV128F92F29B2,GERMANY,51.0834196,10.4234469,1
TRBBKLD128F424ABF5,Louisiana,30.8703881,-92.0071259,6
TRAGBHV128F4295074,Miami  Florida,25.7742658,-80.1936588,10
TRBBJFO12903D074EE,Los Angeles  CA,34.0543942,-118.2439408,3
TRBIHAU128F425C317,Amherst  MA,42.3803676,-72.5231429,0
TRAJXNB128F4261F43,Carle Place  New York,40.7526008,-73.6104057,0
TRAINYU128F4246BD1,Oxford  England,51.752225,-1.2583027,5
TRAATNJ128F42631BA,Bakersfield  CA,35.3738712,-119.0194638,3
TRAEUIW12903D018F0,Galveston  TX,29.299328,-94.7945881,6
TRBCYOI128F1455566,New York  NY,40.7305991,-73.9865811,0
TRARDJY128F14750EA,Los Angeles  CA,34.0543942,-118.2439408,3
TRANVZT128F42AE134,Austin  TX,30.2711286,-97.7436994,6
TRAWOHD128F148D176,Chicago  IL,41.8755546,-87.6244211,12
TRAVELY128F42606F8,Queens  NY,40.6524927,-73.7914213158,0
TRBCGRI128F93355E9,Glasgow  Scotland,55.856656,-4.2435816,5
TRBGWEG12903CFF7EE,Virginia,37.1232245,-78.492772,0
TRAVCNA128F930975C,Sweden,59.6749712,14.5208584,1
TRAUOPA128F93537F2,Syracuse  NY,43.0481221,-76.1474243,0
TRAPASL128F422BC00,Providence  RI,51.4325529,-2.6640438,5
TRAGJQL128E078E840,Timmins  Ontario  Canada,48.4759183,-81.3351617,12
TRATGTP128F427021D,Brooklyn  NY,40.6501038,-73.9495822,0
TRAGDPS128F145F8EE,Los Angeles  CA,34.0543942,-118.2439408,3
TRAAMPA128F92E7D0D,Los Angeles  CA,34.0543942,-118.2439408,3
TRAFMME128F932B4D5,Seattle  Washington,47.6038321,-122.3300623,13
TRAHFHR12903CCCAF8,New York NY,40.7305991,-73.9865811,0
TRBHCXR128F92E7D0E,Los Angeles  CA,34.0543942,-118.2439408,3
TRAWIJG128F42B502C,Timmins  Ontario  Canada,48.4759183,-81.3351617,12
TRAXWDS12903CEE35E,Sydney  Australia,-33.8548156,151.2164539,2
TRAPVYD12903CE0269,NORWAY,64.574131,11.5270102892,1
TRAHMIV128F14693DC,United Kingdom,54.7023545,-3.2765752,5
TRBDIOP128EF35F99C,Los Angeles  CA,34.0543942,-118.2439408,3
TRAEVRU128F4263351,Santa Monica  CA,34.0195598,-118.4869738,3
TRAJPPX128F4259FD4,London  England,51.5073219,-0.1276473,5
TRBHHUC128F4294C6F,CANADA - Ontario,50.0000002,-86.0,12
TRAKGDZ12903CE4867,LONG BEACH  California,33.7774658,-118.188487,3
TRBGCLK128F4237A50,Chiswick  London  England,51.4923137,-0.2638179,5
TRACBWX128F92FD725,Edmonton  Alberta  Canada,53.5343609,-113.5065084,13
TRAZVFJ128F9310CE2,Oxford  UK,51.752225,-1.2583027,5
TRACMHD128F931FB14,Helsinki  Finland,60.1666277,24.9435079,1
TRAFWRG128F4295089,Miami  Florida,25.7742658,-80.1936588,10
TRALMTD128E07862AC,Newark  NJ,40.735657,-74.1723666,0
TRBDTNY128F9327A10,England,52.7954791,-0.540240236617,5
TRAHCRI128F4255C6E,Paw Paw  WV,39.5321154,-78.4567384,0
TRAUODU128F9307467,Charlottesville  VA,38.029306,-78.476678,0
TRABRMJ128E0780E42,Poway  CA,32.9628234,-117.0358645,3
TRAPRQZ128F427E188,Calcutta  India,22.5677459,88.3476023,7
TRBHKKJ128F427A3B1,Croix-des-Bouquets   Haiti,18.5775444,-72.2296218,8
TRBDDKF128F426BF7B,PHILADELPHIA  Pennsylvania,39.9523993,-75.1635898,0
TRAPESV128F92FE5E9,Shelby  North Carolina,35.2923513,-81.5356462,10
TRBAHBP128F42985D6,New Jersey,40.0757384,-74.4041621,0
TRAJFRJ128F9328FF1,Memphis  Tennessee,35.1490215,-90.0516284,10
TRAOJEW128F4294CBD,Mogadishu  Somalia,2.0427779,45.3385636,9
TRAATIU128F4291A84,Atlanta  GA,33.7490987,-84.3901848,10
TRBFUMI128F42B5731,New York  NY,40.7305991,-73.9865811,0
TRBAHID128F4278EAF,Barranquilla  Colombia,11.04667645,-74.8490503668,8
TRAQGNV128C7196894,Poway  CA,32.9628234,-117.0358645,3
TRBAYER128F933D3B7,Boston  MA,42.3604823,-71.0595677,0
TRAGWTT128F148CF2C,Gainesville  FL,29.67360855,-82.3234140624,10
TRBCANP128F92FA6B9,New York  NY,40.7305991,-73.9865811,0
TRAMIUD128E07825DB,Richmond VA,-32.8660751,151.499496964,2
TRAZWDT128F4241B14,Quantico  VA,38.5228755,-77.2901862045,0
TRAZVZJ128F92EF28A,San Francisco  CA,37.7792808,-122.4192362,3
TRAQKPR128F427DDF8,Centre,47.5490251,1.7324062,5
TRAGYDZ12903D0957F,Seattle  WA,47.6038321,-122.3300623,13
TRADXCF128EF357134,Dundee  Scotland,56.4593653,-2.9735212,5
TRANCSE128F93044F1,Barranquilla  Colombia,11.04667645,-74.8490503668,8
TRAEFDK128F1473B92,United States,39.7837304,-100.4458824,6
TRAOYHS128F427EF8B,Sacramento  CA,38.5815719,-121.4943995,3
TRAOEAQ12903CC26BD,Long Island  NY,40.8517821,-73.099185269,0
TRANIJQ128F4298A10,New York  NY,40.7305991,-73.9865811,0
TRBBILZ12903CB422C,San Francisco  CA,37.7792808,-122.4192362,3
TRBHBGB128F931E4CF,Philadelphia  Pennsylvania,39.9523993,-75.1635898,0
TRACSIE128F427F98E,The Bronx  New York,40.8527855,-73.8390537935,0
TRAEWLF128F42B1F89,Minneapolis  MN,44.9772995,-93.2654691,12
TRAWDWZ128F9340E55,Fairfax  California,37.9871455,-122.5888685,3
TRALJBT128F4266FD8,The Bronx  New York,40.8527855,-73.8390537935,0
TRBAXDP12903CD1922,Ukiah  CA,39.1501662,-123.207786,3
TRAEVRI128F93608F3,Chiswick  London  England,51.4923137,-0.2638179,5
TRACRON12903CB59E6,Columbus  OH,39.9622601,-83.0007064,12
TRBFJPO128F4295BE3,Barranquilla  Colombia,11.04667645,-74.8490503668,8
TRAJZCH128F933D2B7,Boston  MA,42.3604823,-71.0595677,0
TRAVUAJ128E078EDA2,Boston  MA,42.3604823,-71.0595677,0
TRBBMPH128F1469775,United Kingdom,54.7023545,-3.2765752,5
TRBGIDU128F4241A2E,Seattle  WA,47.6038321,-122.3300623,13
TRAQDZZ128F42AF66A,Memphis  TN,35.1490215,-90.0516284,10
TRAZCSY128F42683F2,California - LA,36.7014631,-118.7559973,3
TRANCCN128E0794B18,Los Angeles  CA,34.0543942,-118.2439408,3
TRAOWBP128F4257C64,Galveston  TX,29.299328,-94.7945881,6
TRAETTV12903CBBD09,Seattle  USA,47.6038321,-122.3300623,13
TRAASQC128F93480F0,Chicago,41.8755546,-87.6244211,12
TRASYIH12903D08529,Los Angeles,34.0543942,-118.2439408,3
TRBEKGR128F425DA44,Los Angeles  CA,34.0543942,-118.2439408,3
TRARMHA128F92E7D32,Los Angeles  CA,34.0543942,-118.2439408,3
TRABJWA128F9309C09,Helsinki  Finland,60.1666277,24.9435079,1
TRARHCB128F148D1B0,New Jersey,40.0757384,-74.4041621,0
TRANIVG128F1484DED,Los Angeles   New York,34.0143928,-117.8984509,3
TRAQITZ128F4265E0E,Kingsland  AR,33.8584369,-92.2940371,6
TRBCSDW128F424D686,Maine,45.709097,-68.85902,0
TRBHJJP128F145EA12,San Antonio  TX,29.4246002,-98.4951404,6
TRAFJVH128F42BC25E,Compton CA,33.8948824,-118.2260433,3
TRBEUKI128F9318306,Teoc  MS,33.5792862,-90.0553621,10
TRAKQXJ128F147A028,Ukiah  CA,39.1501662,-123.207786,3
TRACUCT128F422BC2F,Denver  CO,39.7348381,-104.965327,6
TRAGALM128F4236C86,Japan,36.5748441,139.2394179,14
TRARSZV12903CDB2DE,Hudsonville  MS,34.8612054,-89.375075,10
TRBACUF128F4247F8C,Minneapolis  MN,44.9772995,-93.2654691,12
TRBBVNR128E078E1E4,Los Angeles  CA,34.0543942,-118.2439408,3
TRAMKKJ128F1463612,NY - Long Island,40.8517821,-73.099185269,0
TRAVKJJ128F424DA32,Chicago  IL,41.8755546,-87.6244211,12
TRAMARM128E0796A50,Stillwater  OK,36.1156306,-97.0585716,6
TRAJIUK128F42668E6,Wisconsin,44.4308975,-89.6884636,12
TRAFZHK128F145E86B,Wilkes Barre  PA,41.2464824,-75.8817315,0
TRBDYIC128F92F1D17,Detroit MI,42.3486635,-83.0567374,12
TRAVRPL128F145E874,Wilkes Barre  PA,41.2464824,-75.8817315,0
TRAZEYQ12903C9D099,Beaumont  Texas,30.0860459,-94.101846,6
TRAYABW128F4235888,Berkeley  CA,37.8708393,-122.2728638,3
TRAAAEF128F4273421,London  England,51.5073219,-0.1276473,5
TRAWEIX128F14B0F05,Mt. Vernon  NY,40.9125992,-73.8370785,0
TRAVPHL128F424EAE1,Escatawpa  MS,30.49112175,-88.5513368812,10
TRAWHZK12903CB5A01,Columbus  OH,39.9622601,-83.0007064,12
TRABZRZ128F42628AD,London  England,51.5073219,-0.1276473,5
TRABYEY128F933773A,Pittsburgh  PA,40.4416941,-79.990086,0
TRAUXSO128F42B863C,Newcastle,54.9770924,-1.6142058,5
TRBFSNP128F14572B5,California - LA,36.7014631,-118.7559973,3
TRANMOT128F92EFF19,Cross Lane  WV,39.180181,-81.7331799,0
TRBBJAJ128F425DA40,Los Angeles  CA,34.0543942,-118.2439408,3
TRAYQKQ128F1491182,London  England,51.5073219,-0.1276473,5
TRAEMNZ128F9334662,Boston  MA,42.3604823,-71.0595677,0
TRAUCZX128F149D9AE,Vidor  TX,30.1316001,-94.0154541,6
TRANRFB128F1481F1E,Batley  England,53.716564,-1.6363855,5
TRACFZI128E0795424,California,36.7014631,-118.7559973,3
TRABOXX128F92F29EB,Minnesota,45.9896587,-94.6113287,12
TRABVWG128F9359323,Los Angeles  California,34.0543942,-118.2439408,3
TRAYGHE12903CD213E,Braintree  Essex  England,51.8790108,0.5501584,5
TRAXPHE128F92F4100,Middlesbrough  England,54.5760419,-1.2344046,5
TRABJIX128C7196953,London,51.5073219,-0.1276473,5
TRAPTRH128F4271659,Beaumont  Texas,30.0860459,-94.101846,6
TRARIZK128F92FF27A,Garnant  Wales,51.7953874,-3.8911244,5
TRBEYJR128F4292651,Severn  MD,39.1278864,-76.6869127,0
TRAQEOP12903CA65E2,Barranquilla  Colombia,11.04667645,-74.8490503668,8
TRBALIJ128F14884B5,Muskegon  MI,43.2341813,-86.248392,12
TRAFRKU128F933CE16,Atlanta  GA,33.7490987,-84.3901848,10
TRARJPL128F931C7D2,Salt Lake City  UT,40.7670126,-111.8904307,3
TRAQQHJ128F9345DC3,Chicago,41.8755546,-87.6244211,12
TRACHKX128F934B07A,Stockholm,59.3251172,18.0710935,1
TRBHKKK128F427E9FF,Escatawpa  MS,30.49112175,-88.5513368812,10
TRAKOEB128F1478783,Chicago,41.8755546,-87.6244211,12
TRAWRHQ128F1495E6B,Niteroi  Brazil,-22.883237,-43.1154551,11
TRAQEUQ128F425282E,POLAND,52.0977181,19.0258159,1
TRALNOD128F4264AEB,Santa Monica  CA,34.0195598,-118.4869738,3
TRAMFFW128F4263AD7,London  England,51.5073219,-0.1276473,5
TRAHORF12903CDA9FB,Corte Madera CA,37.9254806,-122.5274754,3
TRARKGW128F92EB8F9,NL,26.1630556,94.5884911,7
TRAPAZE128F4233355,Pittsburgh  PA,40.4416941,-79.990086,0
TRANRWM128F42873F9,Tempe  AZ,33.4144139,-111.9094473,3
TRADGXI128F92EF28F,San Francisco  CA,37.7792808,-122.4192362,3
TRAPLMD128F932FF43,Los Angeles  CA,34.0543942,-118.2439408,3
TRAASUZ128F9314950,Bakersfield  CA,35.3738712,-119.0194638,3
TRATJSR128F4266791,The Bronx  New York,40.8527855,-73.8390537935,0
TRARANL128F1478789,Chicago,41.8755546,-87.6244211,12
TRBFVZI128F147FCAF,Chiswick  London  England,51.4923137,-0.2638179,5
TRAYJHF128F4294CB8,Mogadishu  Somalia,2.0427779,45.3385636,9
TRAIPST128F9302AE9,St. Joseph  MO,39.7686055,-94.8466321,6
TRAZXDC128F429874E,Kingston  Jamaica,17.9712148,-76.7928127,8
TRAMBBV128F9337714,Pittsburgh  PA,40.4416941,-79.990086,0
TRAAPPQ128F14961F5,Athens  GA,33.9595974,-83.3766779,10
TRAWLGG128F42884CA,Atlanta  GA,33.7490987,-84.3901848,10
TRAHCHN128F4276D58,Arles  France,43.6776223,4.6309653,5
TRBFBUO128F42A3DED,Eskilstuna  Sweden,59.3717379,16.5051474,1
TRAYKOC128F930D2B8,Boston  MA,42.3604823,-71.0595677,0
TRAUVUF128F148D1AA,New Jersey,40.0757384,-74.4041621,0
TRAWTGS128F14569A8,London  England,51.5073219,-0.1276473,5
TRBFBOG128F9356C6E,allentown Pennsylvania USA,40.6022059,-75.4712793,0
TRAAXUY128F426BA55,Los Angeles  CA,34.0543942,-118.2439408,3
TRABHVL128F92EFB0E,Bridgend  South Wales  UK,51.4968369,-3.5658028,5
TRAWDLK128EF342E1E,Newark  NJ,40.735657,-74.1723666,0
TRAEXHW128F92E2602,Geneva  NY,42.8689552,-76.9777435,0
TRADAYS12903CDBE0F,Greenwood  MS,39.60903665,-86.1070449882,12
TRBFRZX128F9341EAE,East Flatbush  Brooklyn  NY,40.6537148,-73.930415,0
TRAWSXV128F4273E35,Queensbridge  NY,40.75514545,-73.9449784413,0
TRACCVZ128F4291A8A,Atlanta  GA,33.7490987,-84.3901848,10
TRBFWSP128F92F29B4,GERMANY,51.0834196,10.4234469,1
TRAQOXO128F42636BD,London  England,51.5073219,-0.1276473,5
TRADODV128F4283EB6,Queensbridge  NY,40.75514545,-73.9449784413,0
TRAWGLP128F92DE5AD,LOS ANGELES  California,34.0543942,-118.2439408,3
TRARIRG128F147FC96,Chiswick  London  England,51.4923137,-0.2638179,5
TRAGHBP128E0793AF7,London  England,51.5073219,-0.1276473,5
TRAXWQU128F42716E2,Seymour  IN,38.9592201,-85.8902546,12
TRANCOS128F4267DFB,Borlänge,60.4856426,15.4234561,1
TRBADGN128F42AA534,Cádiz,36.5298292,-6.2925678,5
TRAXJHG128F427EA02,Escatawpa  MS,30.49112175,-88.5513368812,10
TRBCCAJ128F148CBBB,allentown Pennsylvania USA,40.6022059,-75.4712793,0
TRATZQS128F1467D4B,Georgia,32.3293809,-83.1137365,10
TRAAIAE128F42AC53D,Medicine Lodge  KS,37.2811339,-98.5803609,6
TRABXVE128F4284AFC,Forest Hills  Queens  New York City  NY  USA,40.7232458,-73.8466131103,0
TRBGMJF128F425E8EA,Los Angeles  CA,34.0543942,-118.2439408,3
TRAWVNL128F9327983,England,52.7954791,-0.540240236617,5
TRAPJPD128F14572B3,California - LA,36.7014631,-118.7559973,3
TRAGJPA128F92F9665,Dublin  Ireland,53.3497645,-6.2602731,5
TRANZIL128F42A2670,Locust Ridge  TN,35.6561818,-86.2952707,10
TRBAHEH128F9327D39,Croix-des-Bouquets   Haiti,18.5775444,-72.2296218,8
TRAKYWY128F9310CF4,Oxford  UK,51.752225,-1.2583027,5
TRBAWKB128F931BAEE,Minnesota,45.9896587,-94.6113287,12
TRBCNWM128F92D50EC,Queens  NY,40.6524927,-73.7914213158,0
TRAVLWL128F424EF6A,Stillwater  OK,36.1156306,-97.0585716,6
TRAEHXW128F146F3C5,Houston  TX,29.675779,-95.4021585102,6
TRAQLOD128F145EC9D,Madrid  Spain,40.4167047,-3.7035824,5
TRADKDX128F9320676,Seattle  WA,47.6038321,-122.3300623,13
TRACRTS128F9300F7E,Washington  D.C.,38.8949549,-77.0366455,0
TRALRTY128F428BE43,Atlanta  GA,33.7490987,-84.3901848,10
TRAXDAH128F422BBFC,Providence  RI,51.4325529,-2.6640438,5
TRAGNBQ128F149CB93,Wilmette  IL,42.0770909,-87.7238935,12
TRASDGG128F933EDE2,Pittsburgh  PA,40.4416941,-79.990086,0
TRBAIKM12903CBCF21,Regina  Saskatchewan  Canada,50.4480951,-104.615818,13
TRBETHV128F429722F,Cádiz,36.5298292,-6.2925678,5
TRAKCFG128F149D9B7,Vidor  TX,30.1316001,-94.0154541,6
TRAZVYP128F1459AD9,London  England,51.5073219,-0.1276473,5
TRAKMUO128F4215890,Madrid  Spain,40.4167047,-3.7035824,5
TRAPNII12903CEA4F8,England,52.7954791,-0.540240236617,5
TRBCJUF128F93190C2,LDN,50.10649545,14.4009095531,1
TRAZLLR128F42A8DCC,United States,39.7837304,-100.4458824,6
TRBHEBY128F148CF2B,Gainesville  FL,29.67360855,-82.3234140624,10
TRAWKPT128E0795428,California,36.7014631,-118.7559973,3
TRAUYZG12903CDA4E9,Sayreville  NJ,40.4592726,-74.3609821,0
TRBGZLM128F4221E63,Gainesville  FL,29.67360855,-82.3234140624,10
TRBFIAK128E07823AA,Wales,52.2928116,-3.7389299,5
TRAKXMS12903CB36F2,Charlottesville  VA,38.029306,-78.476678,0
TRADRNN128F92F7172,Chicago  IL,41.8755546,-87.6244211,12
TRATAIB128F92E81CB,Santa Barbara,34.4098107,-119.6970238,3
TRBFNBC12903CA9800,Atlanta  GA,33.7490987,-84.3901848,10
TRAFUWI128F934C730,Antarctica,-82.1081819,34.378236,4
TRAOSFC128F42618F6,New Orleans  LA,29.9499323,-90.0701155,10
TRANLJA128F42A5379,Locust Ridge  TN,35.6561818,-86.2952707,10
TRAMRFE128F4267DF3,Borlänge,60.4856426,15.4234561,1
TRANWOF12903CB3E19,Los Angeles  CA,34.0543942,-118.2439408,3
TRBGHND128E079438C,New York  NY,40.7305991,-73.9865811,0
TRAQEOG128F9353981,Syracuse  NY,43.0481221,-76.1474243,0
TRAIBXJ128F4260700,Queens  NY,40.6524927,-73.7914213158,0
TRAMFRD128E07833DA,Locust Ridge  TN,35.6561818,-86.2952707,10
TRARIIY128F147187D,New York  NY,40.7305991,-73.9865811,0
TRAGPAF128EF34542A,Long Island  NY,40.8517821,-73.099185269,0
TRBBVSO128F9341C12,Medicine Lodge  KS,37.2811339,-98.5803609,6
TRALDUE128F9312AF2,Dundee  Scotland,56.4593653,-2.9735212,5
TRAPJFL128F42AA7B4,Seattle  WA,47.6038321,-122.3300623,13
TRASAIH128F931F567,Orange  CA,33.7500378,-117.870493,3
TRAQVOG128F9340E58,Fairfax  California,37.9871455,-122.5888685,3
TRAJNWY128E078907F,Melbourne  Australia,-37.8142175,144.9631608,2
TRAPQNA128F93000EB,Gore  VA,39.2639911,-78.3319493,0
TRAKXIR128F92CF85A,Cleveland  TN,35.1595182,-84.8766114,10
TRASLHI128EF343C84,London  England,51.5073219,-0.1276473,5
TRBCUPT128F1462B73,Orange  CA,33.7500378,-117.870493,3
TRBBGQN128F9310CBE,Oxford  UK,51.752225,-1.2583027,5
TRAFLZY128F148959F,New Jersey,40.0757384,-74.4041621,0
TRAHXGG128F9350452,Bakersfield  CA,35.3738712,-119.0194638,3
TRAROQC128F4273979,Barranquilla  Colombia,11.04667645,-74.8490503668,8
TRATTNI128E0799697,Nashville  TN,36.1622296,-86.774353,10
TRANBMY128F426416A,Queens  NY,40.6524927,-73.7914213158,0
TRAVMXD12903CBBD0B,Seattle  USA,47.6038321,-122.3300623,13
TRBHIJC128F92E55E2,Greenwood  MS,39.60903665,-86.1070449882,12
TRBHAAK128F92E27BF,Croix-des-Bouquets   Haiti,18.5775444,-72.2296218,8
TRATDDF128F4294E6A,Eskilstuna  Sweden,59.3717379,16.5051474,1
TRBAAOT128F4261A18,Sayreville  NJ,40.4592726,-74.3609821,0
TRAZACV128F426983D,Glasgow  Scotland,55.856656,-4.2435816,5
TRAFBVU128F426B3F6,Oslo  Norway,59.9132694,10.7391112,1
TRBCPXR128F42AC544,Medicine Lodge  KS,37.2811339,-98.5803609,6
TRASCWR12903CCC575,Seattle  USA,47.6038321,-122.3300623,13
TRBBEGG128F9314BAA,Medicine Lodge  KS,37.2811339,-98.5803609,6
TRBGBGO128F4264203,Wisconsin,44.4308975,-89.6884636,12
TRBHQHN128F148A1B3,Amherst  MA,42.3803676,-72.5231429,0
TRBBVBM128F4276D82,Glasgow  Scotland,55.856656,-4.2435816,5
TRBIAVU128EF3493BA,Paw Paw  WV,39.5321154,-78.4567384,0
TRATDLH128F93384B0,LDN,50.10649545,14.4009095531,1
TRABBXU128F92FEF48,Hamtramck  MI,42.3928151,-83.0496437,12
TRAUNEL128F1467D5C,Georgia,32.3293809,-83.1137365,10
TRAIWZZ128F9306AFF,Bakersfield  CA,35.3738712,-119.0194638,3
TRARVZG128F1497359,BAKERSFIELD  California,35.3738712,-119.0194638,3
TRBBYDT128F14805B4,Chiswick  London  England,51.4923137,-0.2638179,5
TRBDLLL128F9331D6E,St. Louis  MO,38.6272733,-90.1978888,12
TRAZZQC128F427A0F5,Boston  MA,42.3604823,-71.0595677,0
TRBDVVT128F4279D11,Los Angeles CA,34.0543942,-118.2439408,3
TRAGVAO128F4289B5D,Queensbridge  NY,40.75514545,-73.9449784413,0
TRBFIUJ12903CFEB7C,City of Angels,34.0543942,-118.2439408,3
TRBGRIP128F147FCA6,Chiswick  London  England,51.4923137,-0.2638179,5
TRALDDK128F9300AC5,Orange  CA,33.7500378,-117.870493,3
TRBFYJE128F14A8ABF,Birmingham  England,52.4776875,-1.8948515,5
TRAKKOH128F42AF40E,The Bronx  New York,40.8527855,-73.8390537935,0
TRAPPUN128F429400B,Seattle  WA,47.6038321,-122.3300623,13
TRAPCHT128F4239830,Orlando  FL,28.5479786,-81.4127840856,10
TRACOHQ128F424C5EF,Cleveland  OH,41.5051613,-81.6934445,12
TRBIFOK128EF362D20,Los Angeles  CA,34.0543942,-118.2439408,3
TRAIWNA128F145E2CD,Batley  England,53.716564,-1.6363855,5
TRADXCO128F426B26D,NY - New York City,40.7305991,-73.9865811,0
TRABLLK128F428FFAF,Liverpool  England,53.4054719,-2.9805392,5
TRAZWGV128F425DA7C,Vidor  TX,30.1316001,-94.0154541,6
TRBFNMG128F4278109,Boston  MA,42.3604823,-71.0595677,0
TRAXJVO128F42AC534,Medicine Lodge  KS,37.2811339,-98.5803609,6
TRASYVP12903D09590,Seattle  WA,47.6038321,-122.3300623,13
TRAFKRE128F932002B,Baltimore  MD,39.2908608,-76.6108072,0
TRBIBAQ128F93279F5,England,52.7954791,-0.540240236617,5
TRAPMRV128F92F5F4C,Austin  TX,30.2711286,-97.7436994,6
TRAGQBY128F42635B7,London  England,51.5073219,-0.1276473,5
TRAGFVT128F92ECB5D,Manchester  England,53.4791301,-2.2441008,5
TRAONPF128F42480A7,Lynchburg  VA,37.40088,-79.1844922946,0
TRAKTWZ128EF35E206,Los Angeles   New York,34.0143928,-117.8984509,3
TRAURRP128F4261B94,Austin  TX,30.2711286,-97.7436994,6
TRALROP128F92CA9CC,Seattle  WA,47.6038321,-122.3300623,13
TRAJFDU128F426A5F4,Newcastle,54.9770924,-1.6142058,5
TRAMPCW128F92CC022,Forest Hills  Queens  New York City  NY  USA,40.7232458,-73.8466131103,0
TRAPGKY128F42972A9,St. Catharines  ON  Canada,43.1654193,-79.2391708,0
TRASSZI128F146EC5F,Dundee  Scotland,56.4593653,-2.9735212,5
TRBFPRL128F14569B9,London  England,51.5073219,-0.1276473,5
TRASDYA128F425E84F,Fairfax  California,37.9871455,-122.5888685,3
TRALQGZ128F146F500,Scotland,56.7861112,-4.1140517,5
TRAUSHD128E0795347,Sayreville  NJ,40.4592726,-74.3609821,0
TRAPGOZ128F933A945,Fargo  ND,46.8772292,-96.7898209,12
TRBBTUD128F42A10A3,POLAND,52.0977181,19.0258159,1
TRBATEY128F4285370,McLellan  FL,30.9865707,-86.8863502,10
TRAZYVR128F4280A24,Long Island  NY,40.8517821,-73.099185269,0
TRAMTYX128F42985D0,New Jersey,40.0757384,-74.4041621,0
TRADCIM128F427A3A1,Croix-des-Bouquets   Haiti,18.5775444,-72.2296218,8
TRAAQCK128F92E8C33,LDN,50.10649545,14.4009095531,1
TRAGHJX128F426F76F,Duluth  MN,46.7729322,-92.1251217,12
TRANEMQ128F42A10A8,POLAND,52.0977181,19.0258159,1
TRAEOBA12903CAFAB0,London  England,51.5073219,-0.1276473,5
TRAEVHU128F92D9EA0,Houston  Texas,29.7589382,-95.3676973,6
TRADFII128F931FC9F,Los Angeles  CA,34.0543942,-118.2439408,3
TRANTAD128F92FD042,Calcutta  India,22.5677459,88.3476023,7
TRAPQQI128F1460D64,Los Angeles  California,34.0543942,-118.2439408,3
TRAUXSK128F427C58D,Pittsburgh  PA,40.4416941,-79.990086,0
TRBFRFR128E0781C86,Gainesville  FL,29.67360855,-82.3234140624,10
TRADJGI128F148B0F6,Fargo  ND,46.8772292,-96.7898209,12
TRADFID128F4267231,Newcastle,54.9770924,-1.6142058,5
TRANPWV128F9341281,POLAND,52.0977181,19.0258159,1
TRAPHZT128F147A02B,Ukiah  CA,39.1501662,-123.207786,3
TRBDDTT128F4291192,New Orleans  LA,29.9499323,-90.0701155,10
TRALNJR128F145AC96,New York  NY,40.7305991,-73.9865811,0
TRALPKG12903CDCA8A,London  England,51.5073219,-0.1276473,5
TRAFCWJ128F42515AE,Teoc  MS,33.5792862,-90.0553621,10
TRBGNNC128F148D427,allentown Pennsylvania USA,40.6022059,-75.4712793,0
TRAWAXV128F92E075C,Minneapolis  MN,44.9772995,-93.2654691,12
TRAUOUZ128E078F8BB,Compton  California,33.8948824,-118.2260433,3
TRBHEVR128F4263CE0,Wisconsin,44.4308975,-89.6884636,12
TRAJHHE128F146815C,Gilmer  TX,32.7287472,-94.9424378,6
TRBCGKB12903CC0031,Batley  England,53.716564,-1.6363855,5
TRACBWP128C7196948,Escatawpa  MS,30.49112175,-88.5513368812,10
TRADFXD128F424694C,Borlänge,60.4856426,15.4234561,1
TRASAQI128F426EEA3,Duluth  MN,46.7729322,-92.1251217,12
TRAPHAH128F42677A4,The Bronx  New York,40.8527855,-73.8390537935,0
TRBGCAK128F425F3CC,Braintree  Essex  England,51.8790108,0.5501584,5
TRAMUUZ128F933CA08,allentown Pennsylvania USA,40.6022059,-75.4712793,0
TRBDIMX128F147A307,Niteroi  Brazil,-22.883237,-43.1154551,11
TRAFLMU128F4274A4D,ABD,30.3668544,48.2284409439,9
TRACVSS128E07846A7,Dundee  Scotland,56.4593653,-2.9735212,5
TRANIUD12903CCE692,Montego Bay  Jamaica,18.4724603,-77.9217356,8
TRAEOMS128F4262357,Berkeley  CA,37.8708393,-122.2728638,3
TRARUOP12903CF2384,Boston  MA,42.3604823,-71.0595677,0
TRBEIVC128F9320E95,Dundee  Scotland,56.4593653,-2.9735212,5
TRAQXJY12903CF3A0E,Birmingham  England,52.4776875,-1.8948515,5
TRAWULX128F4291255,Medicine Lodge  KS,37.2811339,-98.5803609,6
TRACTWW12903CB7550,Richmond VA,-32.8660751,151.499496964,2
TRAUJLJ128E0784E7C,Brooklyn  NY,40.6501038,-73.9495822,0
TRAGKUI128F92F4698,Sweden,59.6749712,14.5208584,1
TRAXRGF128F930A59F,New York  NY,40.7305991,-73.9865811,0
TRAIACZ128F428C60A,Atlanta  GA,33.7490987,-84.3901848,10
TRAXEHW128F423E590,New Jersey,40.0757384,-74.4041621,0
TRBBQFV128F4252EFF,Galveston  TX,29.299328,-94.7945881,6
TRADDRF128F145869F,Glasgow  Scotland,55.856656,-4.2435816,5
TRAIOWX128F14750E5,Los Angeles  CA,34.0543942,-118.2439408,3
TRALJVQ128F428C764,Los Angeles  California,34.0543942,-118.2439408,3
TRAAVGB12903CFAA99,McLellan  FL,30.9865707,-86.8863502,10
TRADSQZ128F42707D7,Newcastle,54.9770924,-1.6142058,5
TRAMMAF128F93051B0,London  England,51.5073219,-0.1276473,5
TRAZKAG12903CD1918,Ukiah  CA,39.1501662,-123.207786,3
TRAGOVG128F42A963D,Bakersfield  CA,35.3738712,-119.0194638,3
TRAWWQM128F148C796,New York  NY,40.7305991,-73.9865811,0
TRAHFOU128F42B3F2A,Long Island  NY,40.8517821,-73.099185269,0
TRABQZK128F92F54F4,Barranquilla  Colombia,11.04667645,-74.8490503668,8
TRAKDDB128F92D168A,Hollywood  CA,34.1028268,-118.3299898,3
TRBEVTM128F92FE2B2,Los Angeles  CA,34.0543942,-118.2439408,3
TRAZORC128F426C323,Melbourne  Australia,-37.8142175,144.9631608,2
TRAKWTG128F42454E2,Gainesville  FL,29.67360855,-82.3234140624,10
TRACSBL128F42480E8,Sydney  Australia,-33.8548156,151.2164539,2
TRABGMB12903CF50FE,Germany,51.0834196,10.4234469,1
TRABFKN12903CAF61B,Baltimore  MD,39.2908608,-76.6108072,0
TRACVFF12903CF055A,Amherst  MA,42.3803676,-72.5231429,0
TRBFLER128F148C52B,Boston  MA,42.3604823,-71.0595677,0
TRBARHH128E078EDE9,Boston  MA,42.3604823,-71.0595677,0
TRANTFR128F931C7DA,Salt Lake City  UT,40.7670126,-111.8904307,3
TRBCTRX128F4299237,Croix-des-Bouquets   Haiti,18.5775444,-72.2296218,8
TRBCUBV128F145F7E9,Galveston  TX,29.299328,-94.7945881,6
TRBBMQN128EF35F995,Los Angeles  CA,34.0543942,-118.2439408,3
TRAAIHL128F92E6DDA,Philadelphia  PA,39.9523993,-75.1635898,0
TRBIJFB128F92ED124,Buffalo  NY,42.8971799,-78.8533217725,0
TRBICRP128F42882BB,Atlanta  GA,33.7490987,-84.3901848,10
TRAKZHN128F426C3D2,Boston  MA,42.3604823,-71.0595677,0
TRBHKXX128F4252D02,Oxford  UK,51.752225,-1.2583027,5
TRBFUSW128F92D0357,Brooklyn  NY,40.6501038,-73.9495822,0
TRBGGYE128F42B63AB,Austin  TX,30.2711286,-97.7436994,6
TRAMXPQ128F148B0C2,Cleveland  TN,35.1595182,-84.8766114,10
TRAKQFZ128F429D3C9,San Francisco  CA,37.7792808,-122.4192362,3
TRAYMKM128F4277046,Forest Hills  Queens  New York City  NY  USA,40.7232458,-73.8466131103,0
TRBDSLA128F4288246,Severn  MD,39.1278864,-76.6869127,0
TRBDWLE128F42B3112,Brooklyn  NY,40.6501038,-73.9495822,0
TRBEATE128E078F0D8,Sayreville  NJ,40.4592726,-74.3609821,0
TRBFURI128F1455498,Scotland,56.7861112,-4.1140517,5
TRBAFWX12903CA9831,Atlanta  GA,33.7490987,-84.3901848,10
TRAKHYP128E0792F07,Old Town  ME,44.9342349,-68.6453091,0
TRAIATD128F9331CD6,Atlanta  GA,33.7490987,-84.3901848,10
TRAMCGL128F92F3D87,Long Beach  California,33.7774658,-118.188487,3
TRATMDD12903D11C7A,Gore  VA,39.2639911,-78.3319493,0
TRAQYOC128F9341CDC,East Flatbush  Brooklyn  NY,40.6537148,-73.930415,0
TRAGDPH128F9344020,San Francisco  CA,37.7792808,-122.4192362,3
TRAWOBG128F93256C6,Boston  MA,42.3604823,-71.0595677,0
TRASIVA128F933DB52,Philadelphia  PA,39.9523993,-75.1635898,0
TRBEBEZ128E0792F08,Old Town  ME,44.9342349,-68.6453091,0
TRAJEZT128E0795DF3,Middlesbrough  England,54.5760419,-1.2344046,5
TRAJAZP128F4290FF9,Atlanta  GA,33.7490987,-84.3901848,10
TRAKOPE128F421CE6A,Gore  VA,39.2639911,-78.3319493,0
TRBFLOH128F42630E3,Englewood  NJ,40.8928771,-73.972638,0
TRALZTM128F92EC5F0,Charlemagne  Quebec  Canada,45.7263547,-73.4976294,0
TRASWKJ128E0792FE7,Old Town  ME,44.9342349,-68.6453091,0
TRAMMDM128F425EAA9,Croix-des-Bouquets   Haiti,18.5775444,-72.2296218,8
TRAUWRW128F9358C69,Brooklyn  NY,40.6501038,-73.9495822,0
TRBHMZS128F42658FF,Memphis  TN,35.1490215,-90.0516284,10
TRAZJOI12903CDA550,Sayreville  NJ,40.4592726,-74.3609821,0
TRAVTEH128E07953EA,Sayreville  NJ,40.4592726,-74.3609821,0
TRASXZE128F427F156,Oxford  England,51.752225,-1.2583027,5
TRAAGCZ128F93210FD,Los Angeles  CA,34.0543942,-118.2439408,3
TRASZSF128F428B8F3,Sledge  MS,34.432039,-90.2224095302,10
TRAFCVI128C7196BE6,Birmingham  England,52.4776875,-1.8948515,5
TRBCBLV128F14ADF31,Fort Wayne  Indiana,41.0799898,-85.1386014,12
TRAMSAY128F92ED0DD,Buffalo  NY,42.8971799,-78.8533217725,0
TRAFQFM128E078EC97,St. Joseph  MO,39.7686055,-94.8466321,6
TRAIUPS128F92F2825,Helsinki  Finland,60.1666277,24.9435079,1
TRAGXUZ128F9311745,Kingsland  AR,33.8584369,-92.2940371,6
TRAULGT12903D10B94,Memphis  Tennessee,35.1490215,-90.0516284,10
TRBBWDJ128F42595D5,Dublin  Ireland,53.3497645,-6.2602731,5
TRBBHPQ128F145A7F8,Seymour  IN,38.9592201,-85.8902546,12
TRARTJL128F92CB44B,Sayreville  NJ,40.4592726,-74.3609821,0
TRAGYJM128EF3466D2,Amherst  MA,42.3803676,-72.5231429,0
TRADQJL128F92D9957,Sydney  Australia,-33.8548156,151.2164539,2
TRANKIL128F1476FA2,London  England,51.5073219,-0.1276473,5
TRBBMIF12903CA1EB0,United Kingdom,54.7023545,-3.2765752,5
TRBGZKO128F92DB016,London  England,51.5073219,-0.1276473,5
TRAYIUG12903CC7E3C,Arles  France,43.6776223,4.6309653,5
TRBEELS128F42B63A8,Austin  TX,30.2711286,-97.7436994,6
TRAZJGD128F4289D2A,Geneva  NY,42.8689552,-76.9777435,0
TRAOATJ128F147FC9B,Chiswick  London  England,51.4923137,-0.2638179,5
TRAZBBP128E07845D4,Atlanta  GA,33.7490987,-84.3901848,10
TRABZCL128E0789AED,Quantico  VA,38.5228755,-77.2901862045,0
TRAONNA128F4268CCA,Queensbridge  NY,40.75514545,-73.9449784413,0
TRAAUEO128E0780CB9,London  England,51.5073219,-0.1276473,5
TRBFYKT128F428AFF7,Lynchburg  VA,37.40088,-79.1844922946,0
TRAMCND128F1466ACF,New York  NY,40.7305991,-73.9865811,0
